[
  {
    "address": "Rio de Janeiro",
    "latitude": -22.905722,
    "longitude": -43.189130
  },
  {
    "address": "Brasilia",
    "latitude": -15.802118,
    "longitude": -47.889071
  },
  {
    "address": "Salvador",
    "latitude": -12.999786,
    "longitude": -38.465842
  },
  {
    "address": "Fortaleza",
    "latitude": -3.730933,
    "longitude": -38.525167
  },
  {
    "address": "Belo Horizonte",
    "latitude": -19.914460,
    "longitude": -43.940131
  },
  {
    "address": "Manaus",
    "latitude": -3.127986,
    "longitude": -60.021987
  },
  {
    "address": "Curitiba",
    "latitude": -25.459532,
    "longitude": -49.248492
  },
  {
    "address": "Recife",
    "latitude": -8.060491,
    "longitude": -34.871809
  },
  {
    "address": "Goiania",
    "latitude": -16.685592,
    "longitude": -49.260430
  },
  {
    "address": "Belen",
    "latitude": -1.451889,
    "longitude": -48.481492
  },
  {
    "address": "Porto Alegre",
    "latitude": -30.068891,
    "longitude": -51.210888
  },
  {
    "address": "Guarulhos",
    "latitude": -23.454,
    "longitude": -46.5337
  },
  {
    "address": "Campinas",
    "latitude": -22.915591,
    "longitude": -47.063986
  },
  {
    "address": "San Luis",
    "latitude": -2.499290,
    "longitude": -44.275786
  },
  {
    "address": "Sao Goncalo",
    "latitude": -19.850870,
    "longitude": -43.929387
  },
  {
    "address": "Maceio",
    "latitude": -9.607947,
    "longitude": -35.728388
  },
  {
    "address": "Duque di Caxias",
    "latitude": -27.037191,
    "longitude": -51.294090
  },
  {
    "address": "Campo Grande",
    "latitude": -26.551492,
    "longitude": -53.196991
  },
  {
    "address": "Natal",
    "latitude": -5.805689,
    "longitude": -35.230587
  },
  {
    "address": "Terezina",
    "latitude": -5.095794,
    "longitude": -42.804687
  },
  {
    "address": "São Bernardo do Campo",
    "latitude": -23.720523,
    "longitude": -46.561289
  },
  {
    "address": "Nova",
    "latitude": -22.859051,
    "longitude": -43.665489
  },
  {
    "address": "Juan Pesoa",
    "latitude": -7.093088,
    "longitude": -34.850582
  },
  {
    "address": "Santo André",
    "latitude": -22.270187,
    "longitude": -42.702091
  },
  {
    "address": "Sao Jose dos Campos",
    "latitude": -23.206186,
    "longitude": -45.875686
  },
  {
    "address": "Rio Jabuatan",
    "latitude": -8.142691,
    "longitude": -34.977127
  },
  {
    "address": "Ozasku",
    "latitude": -23.544279,
    "longitude": -46.636972
  },
  {
    "address": "Ribeiran-Preto",
    "latitude": -21.176684,
    "longitude": -47.806426
  },
  {
    "address": "Uberlandia",
    "latitude": -18.922363,
    "longitude": -48.277071
  },
  {
    "address": "Contacted",
    "latitude": -19.914452,
    "longitude": -43.940122
  },
  {
    "address": "Sorokaba",
    "latitude": -23.497386,
    "longitude": -47.463090
  },
  {
    "address": "Aracaju",
    "latitude": -10.898590,
    "longitude": -37.049792
  },
  {
    "address": "Feira di Santana",
    "latitude": -12.250292,
    "longitude": -38.959889
  },
  {
    "address": "Cuiaba",
    "latitude": -16.339194,
    "longitude": -56.189486
  },
  {
    "address": "Joinville",
    "latitude": -26.312788,
    "longitude": -48.847394
  },
  {
    "address": "Juiz de Fora",
    "latitude": -21.753405,
    "longitude": -43.351258
  },
  {
    "address": "Londrina",
    "latitude": -23.297591,
    "longitude": -51.160187
  },
  {
    "address": "Aparecida di Goiania",
    "latitude": -16.802588,
    "longitude": -49.236894
  },
  {
    "address": "Ananindeua",
    "latitude": -1.354690,
    "longitude": -48.292989
  },
  {
    "address": "Niteroi",
    "latitude": -22.875892,
    "longitude": -43.106890
  },
  {
    "address": "Porto Velho",
    "latitude": -13.593086,
    "longitude": -41.042588
  },
  {
    "address": "Campus dos Goitakasis",
    "latitude": -22.905722,
    "longitude": -43.189130
  },
  {
    "address": "Belford Roche",
    "latitude": -22.735260,
    "longitude": -43.425082
  },
  {
    "address": "Serra",
    "latitude": -22.610646,
    "longitude": -43.689294
  },
  {
    "address": "Caxias do Sul",
    "latitude": -22.360491,
    "longitude": -43.675191
  },
  {
    "address": "Vila Velha",
    "latitude": -11.352792,
    "longitude": -38.177088
  },
  {
    "address": "Florianopolis",
    "latitude": -27.581393,
    "longitude": -48.618189
  },
  {
    "address": "São João di Meriti",
    "latitude": -22.799589,
    "longitude": -43.372566
  },
  {
    "address": "Maua",
    "latitude": -22.706192,
    "longitude": -43.158291
  },
  {
    "address": "Macapa",
    "latitude": 0.020023,
    "longitude": -51.077452
  },
  {
    "address": "São José do Rio Preto",
    "latitude": -20.815668,
    "longitude": -49.405517
  },
  {
    "address": "Santos",
    "latitude": -23.966391,
    "longitude": -46.307794
  },
  {
    "address": "Moji das Cruzis",
    "latitude": -23.521609,
    "longitude": -46.198019
  },
  {
    "address": "Betin",
    "latitude": -19.957692,
    "longitude": -44.146088
  },
  {
    "address": "Campina Grande",
    "latitude": -7.211093,
    "longitude": -35.851188
  },
  {
    "address": "Jundiai",
    "latitude": -23.447087,
    "longitude": -50.217891
  },
  {
    "address": "Maringa",
    "latitude": -23.415737,
    "longitude": -51.934778
  },
  {
    "address": "Montis-Clarus",
    "latitude": -19.840593,
    "longitude": -43.355687
  },
  {
    "address": "Karapikuiba",
    "latitude": -23.578992,
    "longitude": -46.821091
  },
  {
    "address": "Olinda",
    "latitude": -4.611391,
    "longitude": -42.392190
  },
  {
    "address": "Piracicaba",
    "latitude": -22.727294,
    "longitude": -47.631290
  },
  {
    "address": "Kariasika",
    "latitude": -20.283630,
    "longitude": -40.234187
  },
  {
    "address": "Bauru",
    "latitude": -22.327992,
    "longitude": -49.065487
  },
  {
    "address": "Rio Branco",
    "latitude": -5.970493,
    "longitude": -64.805587
  },
  {
    "address": "Anapolis",
    "latitude": -16.333391,
    "longitude": -48.934593
  },
  {
    "address": "San Vicente",
    "latitude": -23.956088,
    "longitude": -46.406393
  },
  {
    "address": "Vitoria",
    "latitude": -5.825590,
    "longitude": -41.358993
  },
  {
    "address": "Caucaia",
    "latitude": -3.789786,
    "longitude": -38.572374
  },
  {
    "address": "Itacuakesetuba",
    "latitude": -23.485911,
    "longitude": -46.372122
  },
  {
    "address": "Caruaru",
    "latitude": -8.277886,
    "longitude": -35.973287
  },
  {
    "address": "Pelotas",
    "latitude": -28.266687,
    "longitude": -50.694689
  },
  {
    "address": "Vitoria da Conquista",
    "latitude": -26.209591,
    "longitude": -51.045787
  },
  {
    "address": "Canoas",
    "latitude": -27.555960,
    "longitude": -50.406573
  },
  {
    "address": "Franca",
    "latitude": -20.537088,
    "longitude": -47.388988
  },
  {
    "address": "Ponta Grossa",
    "latitude": -23.557148,
    "longitude": -46.373218
  },
  {
    "address": "Blumenau",
    "latitude": -26.956293,
    "longitude": -49.090990
  },
  {
    "address": "Petrolina",
    "latitude": -9.396189,
    "longitude": -40.519490
  },
  {
    "address": "Paulista",
    "latitude": -23.555409,
    "longitude": -46.662152
  },
  {
    "address": "Ribeiran das Nevis",
    "latitude": -19.766393,
    "longitude": -44.083080
  },
  {
    "address": "Uberaba",
    "latitude": -19.766291,
    "longitude": -47.926288
  },
  {
    "address": "Boa Vista",
    "latitude": 2.822835,
    "longitude": -60.682778
  },
  {
    "address": "Parana",
    "latitude": -25.459524,
    "longitude": -49.248483
  },
  {
    "address": "Guaruja",
    "latitude": -23.989890,
    "longitude": -46.260794
  },
  {
    "address": "Taubate",
    "latitude": -23.013491,
    "longitude": -45.553694
  },
  {
    "address": "Petroplis",
    "latitude": -22.905462,
    "longitude": -43.189166
  },
  {
    "address": "Limeira",
    "latitude": -22.558592,
    "longitude": -47.398690
  },
  {
    "address": "Santarem",
    "latitude": -2.456897,
    "longitude": -54.717803
  },
  {
    "address": "Mosoro",
    "latitude": -5.186394,
    "longitude": -37.340990
  },
  {
    "address": "Susanu",
    "latitude": -23.539392,
    "longitude": -46.308494
  },
  {
    "address": "Kamasari",
    "latitude": -12.696493,
    "longitude": -38.341246
  },
  {
    "address": "Governador Valadaris",
    "latitude": -12.590988,
    "longitude": -39.021190
  },
  {
    "address": "Santa Maria",
    "latitude": -30.584004,
    "longitude": -54.702325
  },
  {
    "address": "Gravatai",
    "latitude": -29.946886,
    "longitude": -50.963789
  },
  {
    "address": "Taboán da Serra",
    "latitude": -28.730791,
    "longitude": -51.077093
  },
  {
    "address": "Varzea Grande",
    "latitude": -27.752592,
    "longitude": -53.102246
  },
  {
    "address": "Palmas",
    "latitude": -10.184589,
    "longitude": -48.333692
  },
  {
    "address": "Joiseiro do Norte",
    "latitude": -7.214089,
    "longitude": -39.317688
  },
  {
    "address": "Cedas do Iguazu",
    "latitude": -25.456490,
    "longitude": -52.894187
  },
  {
    "address": "Sumare",
    "latitude": -23.082591,
    "longitude": -52.396790
  },
  {
    "address": "Embu-Guasu",
    "latitude": -23.829262,
    "longitude": -46.814479
  }
]